Place ID,Place Name,Address,Latitude,Longitude,Closest ArcGIS Match,Closest Match Score,Keywords
ChIJZUoSJzx2aYgRfGqtoNixoh4,prospect point,"PROSPECT, KY 40059, USA",38.343737,-85.61769389999999,"9109 U S HIGHWAY 42, PROSPECT, KY 40059",66,convenience store
ChIJP41X_E-daYgR3Jp-bI67LyY,CBD Pure Hemp Oil,"9535 US-42, PROSPECT, KY 40059, USA",38.3445078,-85.61743880000002,"9521 U S HIGHWAY 42, B, PROSPECT, KY 40059",47,"pharmacy, cbd"
ChIJEwwqmwGdaYgR6Yb0XcxHXGM,TJ's Smoke Outlet,"13206 W U.S. HWY 42 SUITE 101, PROSPECT, KY 40059, USA",38.3643615,-85.6017998,"10306 U S HIGHWAY 42, LOUISVILLE, KY 40059",68,"tobacco, vape, cbd"
ChIJ063jq9V3aYgRqhUhZOxxDYw,Prospect Liquors,"13306 W HWY 42 SUITE 108, PROSPECT, KY 40059, USA",38.3636796,-85.6046252,"10306 U S HIGHWAY 42, LOUISVILLE, KY 40059",66,liquor store
ChIJT6wPzPR3aYgRG2COyOqDgug,Buzz World,"13206 US-42 #111, PROSPECT, KY 40059, USA",38.3647691,-85.6012307,"10306 U S HIGHWAY 42, LOUISVILLE, KY 40059",52,liquor store
ChIJAQRYJXydaYgRaWxxPkhcpkA,Goshen Animal Clinic,"13108 W U.S. HWY 42, PROSPECT, KY 40059, USA",38.3664622,-85.5984337,"10306 U S HIGHWAY 42, LOUISVILLE, KY 40059",62,pharmacy
ChIJN5KnzXGeaYgRM4UpnGxaJs0,The UPS Store,"9462 BROWNSBORO RD, LOUISVILLE, KY 40241, USA",38.3058965,-85.57442549999999,"9440 BROWNSBORO RD, LOUISVILLE, KY 40241",71,convenience store
ChIJq5MFzXGeaYgRhWk6MOFIcmc,GNC,"9472 BROWNSBORO RD, LOUISVILLE, KY 40241, USA",38.305991,-85.5741197,"9440 BROWNSBORO RD, LOUISVILLE, KY 40241",71,"convenience store, pharmacy"
ChIJHf64d2CeaYgRwxj5EuXl9EE,Panera Bread,"10451 CHAMPION FARMS DR, LOUISVILLE, KY 40241, USA",38.296173,-85.560786,"10511 FISCHER PARK DR, 40241",61,convenience store
ChIJQ7a5qX-eaYgRD0S2iL_WuUc,Dunkin',"9913 BROWNSBORO RD, LOUISVILLE, KY 40241, USA",38.3149885,-85.5637648,"9801 BROWNSBORO RD, LOUISVILLE, KY 40241",71,convenience store
ChIJAbQX03GfaYgRlfZw_cDMrZc,Public Storage,"3913 ACCOMACK DR, LOUISVILLE, KY 40241, USA",38.3023017,-85.5390572,"3501 3501 COLLEGE DR DR, 40299",51,convenience store
ChIJVc5dD5SeaYgRwkfVpbZi-4o,Walmart Pharmacy,"3706 DIANN MARIE RD, LOUISVILLE, KY 40241, USA",38.300831,-85.545152,"13702 LA GRANGE RD, LOUISVILLE, KY 40245",57,pharmacy
ChIJ5wKSb4qeaYgRxCJ0g72yBjY,Rainbow Blossom Springhurst Wellness Center,"3608 SPRINGHURST BLVD, LOUISVILLE, KY 40241, USA",38.2998668,-85.56071170000001,"2500 TERRA CROSSING BLVD, LOUISVILLE, KY 40245",54,cbd
ChIJTdbtELOeaYgRwlTmEPtGlgs,The H.T. Hackney Co.,"4015 COLLINS LN, LOUISVILLE, KY 40245, USA",38.301675,-85.521746,"14010 SHELBYVILLE RD, 40245",55,tobacco
ChIJSaA4jACcaYgRfEwbyTNlgig,Marathon Gas (A one Food Mart),"8901 W STATE HWY 22, CRESTWOOD, KY 40014, USA",38.3191876,-85.5211205,"2204 HEATHER LN, 40218",57,"gas station, convenience store"
ChIJXZJyJACZaYgRlqvEosy4URw,Kroger Wine and Spirits,"12440 KY-146, LOUISVILLE, KY 40245, USA",38.2920817,-85.509461,"14010 SHELBYVILLE RD, 40245",55,liquor store
ChIJ5e5wD-dtaYgRbMPlPlcu1XQ,Kentucky Smokes,"527 N 22ND ST, LOUISVILLE, KY 40203, USA",38.2675234,-85.7828016,"521 N 22ND ST, LOUISVILLE, KY 40203",69,"tobacco, vape, cbd"
ChIJ00-FutttaYgRhq2k78U2xFQ,Sam's Food Mart,"2749 BANK ST, LOUISVILLE, KY 40212, USA",38.2709989,-85.79504759999999,"2901 BANK ST, LOUISVILLE, KY 40212",64,convenience store
ChIJU0hKWWxtaYgRJSSzgq67pBE,Family Health Centers - Portland Pharmacy,"2215 PORTLAND AVE, LOUISVILLE, KY 40212, USA",38.2704958,-85.7843237,"2620 PORTLAND AVE, LOUISVILLE, KY 40212",70,pharmacy
ChIJ01UKx3FzaYgRR9NodtnIFDw,Louisville VA Medical Center,"800 ZORN AVE, LOUISVILLE, KY 40206, USA",38.2702857,-85.69695349999999,"8605 SMYRNA RD, 40228",53,pharmacy
ChIJo3FTRpF0aYgRItPAKOc46Ok,Sutherland Hardware & Mercantile,"3620 BROWNSBORO RD, LOUISVILLE, KY 40207, USA",38.2638036,-85.67016860000001,"3805 BROWNSBORO RD, INDIAN HILLS, KY 40207",69,"gas station, convenience store"
ChIJZaKhfGB1aYgRXfYoCE3ofUU,Hemptopia,"1901 RUDY LN STE 2, LOUISVILLE, KY 40207, USA",38.27988930000001,-85.63875999999999,"1901 RUDY LN, LOUISVILLE, KY 40207",64,cbd
ChIJVRorunB1aYgRB6VYdTFgm_g,Speedway,"1415 LYNDON LN, LOUISVILLE, KY 40222, USA",38.2709704,-85.6137821,"1415 LYNDON LN, GRAYMOOR/DEVONDALE, KY 40222",65,"gas station, convenience store"
ChIJf4mTgaZ1aYgRK989f1e_xtQ,Holiday Manor Shopping Center,"4943 BROWNSBORO RD, LOUISVILLE, KY 40222, USA",38.2832816,-85.6312094,"4900 BROWNSBORO RD, NORTHFIELD, KY 40222",71,convenience store
ChIJazXWpuV1aYgRDi2ia3qT6Dw,Golden Keep Game Co.,"1201 HERR LN STE. 180C, LOUISVILLE, KY 40222, USA",38.2674961,-85.61236679999999,"1115 HERR LN, 140, ST MATTHEWS, KY 40222",69,convenience store
ChIJD0Fb3BN1aYgRZJM4yc39l_Y,CVS Pharmacy,"2311 LIME KILN CT, LOUISVILLE, KY 40222, USA",38.2844599,-85.627833,"2121 CRUMS LN, SHIVELY, KY 40216",60,pharmacy
ChIJR7C_DXB1aYgRwx-GFRJM5tc,Closets by Design - Louisville,"1301 HERR LN SUITE 105, LOUISVILLE, KY 40222, USA",38.2682084,-85.61327059999999,"1115 HERR LN, 140, ST MATTHEWS, KY 40222",68,cbd
ChIJp6f2BzKeaYgRLfA-yI2hiPk,Valvoline Instant Oil Change,"8701 WESTPORT RD, GRAYMOOR-DEVONDALE, KY 40222, USA",38.2808894,-85.5920525,"1415 LYNDON LN, GRAYMOOR/DEVONDALE, KY 40222",67,convenience store
ChIJaV_kWdt0aYgRZZ0v9uJXyF0,St. Matthews Community Pharmacy,"200 N HURSTBOURNE PKWY STE 174, LOUISVILLE, KY 40222, USA",38.2497303,-85.5801704,"1330 S HURSTBOURNE PKY, HURSTBOURNE, KY 40222",71,pharmacy
ChIJ0ara_kafaYgRFakhnBC_TL8,M. Joseph Medical,"11900 BRINLEY AVE # 200, LOUISVILLE, KY 40243, USA",38.2499926,-85.53299539999999,"2200 BUECHEL AVE, 101, LOUISVILLE, KY 40218",57,pharmacy
ChIJBQ5RrjCZaYgRlWanKriVgNg,Kroger Fuel Center,"13003 FACTORY LN, LOUISVILLE, KY 40245, USA",38.2886355,-85.50991400000001,"13003 FACTORY LN, FUEL, LOUISVILLE, KY 40245",70,"gas station, convenience store"
ChIJW3CMFxyZaYgRHrmj6Xe3Q3o,Thorntons Store Support Center,"2600 JAMES THORNTON WY, LOUISVILLE, KY 40245, USA",38.275603,-85.4939639,"2803 PATTI LN, JEFFERSONTOWN, KY 40299",53,"gas station, convenience store"
ChIJU7DFNraYaYgRiWqz8qbEq0A,English Station Mini Storage,"508 N ENGLISH STATION RD, LOUISVILLE, KY 40223, USA",38.2508036,-85.5130777,"9814 LINN STATION RD, JEFFERSONTOWN, KY 40223",66,convenience store
ChIJ2Y7SVdaYaYgRAZDjmQ1Cufs,Accredo Health Services,"2115 STANLEY GAULT PKWY # 150, LOUISVILLE, KY 40223, USA",38.2706753,-85.51258539999999,"1025 W BROADWAY, LOUISVILLE, KY 40203",53,pharmacy
ChIJ0XB3-85saYgRC3GU7uqAyCM,Broadway Food Mart,"4134 W BROADWAY, LOUISVILLE, KY 40211, USA",38.2500656,-85.8209504,"4132 W BROADWAY, LOUISVILLE, KY 40211",71,convenience store
ChIJ1xg-Mi1taYgRtwLKdbglujA,Family Dollar,"3417 W BROADWAY, LOUISVILLE, KY 40211, USA",38.2503217,-85.8094184,"3410 W BROADWAY, LOUISVILLE, KY 40211",71,convenience store
ChIJ20BiIcxtaYgR3Izv2kSq6b8,Lucy Mae's Food Mart & Kitchen,"2300 W KENTUCKY ST SUITE 1, LOUISVILLE, KY 40210, USA",38.2421669,-85.79200449999999,"2127 W KENTUCKY ST, LOUISVILLE, KY 40210",69,convenience store
ChIJVVWFSUhtaYgRX2Kw7tGlPIg,Kcs2Plus Qs,"2001 W BROADWAY # 13, LOUISVILLE, KY 40203, USA",38.249411,-85.7857855,"1001 W BROADWAY, LOUISVILLE, KY 40203",71,convenience store
ChIJK_2erDdtaYgRBzT-nD289Dc,Genoa Healthcare,"2225 W BROADWAY 1ST FLOOR, LOUISVILLE, KY 40211, USA",38.2495371,-85.7894482,"2324 W BROADWAY, LOUISVILLE, KY 40211",67,pharmacy
ChIJw75SHr9yaYgRO_eaIu26Fe8,Waterfront Bourbon Wine & Spirits,"ENTRANCE ON FLOYD, 222 E WITHERSPOON ST, LOUISVILLE, KY 40202, USA",38.25733880000001,-85.7477468,"209 E MAIN ST, SUITE 200, 40202",55,liquor store
ChIJU5kBR65yaYgRY_V2mDQ9SW8,Theater Square Wine and Spirits,"651 B, S 4TH ST, LOUISVILLE, KY 40202, USA",38.2471708,-85.7577874,"531 S 4TH ST, LOUISVILLE, KY 40202",69,liquor store
ChIJYcNaNa1zaYgRwf9dxSkgCfo,Justins' House of Bourbon,"101 W MARKET ST, LOUISVILLE, KY 40202, USA",38.2548722,-85.7518855,"1631 W MARKET ST, LOUISVILLE, KY 40203",67,liquor store
ChIJlzb4QQBzaYgRigiiYFuxYVU,BottleShopAndTastingRoom,"207 S PRESTON ST, LOUISVILLE, KY 40202, USA",38.2536279,-85.74593449999999,"339 S PRESTON ST, LOUISVILLE, KY 40202",66,liquor store
ChIJieVQjq9yaYgRFLmzZjHstdM,Community Pharmacy,"532 S 4TH ST, LOUISVILLE, KY 40202, USA",38.2501369,-85.7579792,"531 S 4TH ST, LOUISVILLE, KY 40202",68,pharmacy
ChIJ97Io1rZyaYgR620FQyNtXeg,Norton Pharmacy - Downtown,"200 E CHESTNUT ST LEVEL 2, LOUISVILLE, KY 40202, USA",38.248024400000006,-85.75104189999999,"312 W CHESTNUT ST, LOUISVILLE, KY 40202",71,pharmacy
ChIJfSVxQ6lyaYgRcvPaCrYG7uo,Aluvalife Rx,"812 S 3RD ST, LOUISVILLE, KY 40203, USA",38.243678,-85.757558,"519 S 3RD ST, LOUISVILLE, KY 40202",60,pharmacy
ChIJr4koa1hzaYgRpwvaTVD6Qws,CVS Pharmacy,"400 E BROADWAY, LOUISVILLE, KY 40202, USA",38.245011,-85.7474197,"100 W BROADWAY, LOUISVILLE, KY 40202",70,pharmacy
ChIJnwn65B9zaYgRaFNCHwjpHpU,Louisville Online Vape & CBD Store,"500 W JEFFERSON ST 30TH FL-STE 3007, LOUISVILLE, KY 40202, USA",38.2537578,-85.7592147,"1407 W JEFFERSON ST, LOUISVILLE, KY 40203",60,"vape, cbd"
ChIJa843F91NaIgRsdisJGsa740,"Green Remedy, Inc.","1000 ZANE ST, LOUISVILLE, KY 40210, USA",38.2385108,-85.76994859999999,"209 E MAIN ST, SUITE 200, 40202",55,cbd
ChIJmQYCol5zaYgRJzvzXFR_Vdo,Taste Fine Wines and Bourbons,"634 E MARKET ST, LOUISVILLE, KY 40202, USA",38.2532872,-85.7405198,"434 W MARKET ST, BLDG, LOUISVILLE, KY 40202",66,liquor store
ChIJ29Z7V9pzaYgRPJYdL5Rpl-c,Bourbon Country Cannabis - Nulu,"819 E MARKET ST SUITE 101, LOUISVILLE, KY 40206, USA",38.2532569,-85.7371598,"819 E MARKET ST, 101, LOUISVILLE, KY 40206",71,"vape, cbd"
ChIJaxQHWM9zaYgRaH_AjcPAA1M,Kentucky Cannabis Clinic | Medical Marijuana Doctor,"965 BAXTER AVE, LOUISVILLE, KY 40204, USA",38.2408818,-85.72449780000001,"916 BAXTER AVE, LOUISVILLE, KY 40204",70,vape
ChIJp7038T9zaYgRnZ5PNlRXyD4,Dollar General,"2106 BROWNSBORO RD, N CLIFTON AVE, LOUISVILLE, KY 40206, USA",38.2583921,-85.7054678,"2106 BROWNSBORO RD, LOUISVILLE, KY 40206",71,convenience store
ChIJv69_pRZzaYgRzLQnD-HUOY0,The Shop: Craft Beer Bar + Bottle Shop,"2708 FRANKFORT AVE, LOUISVILLE, KY 40206, USA",38.2543113,-85.6935022,"2347 FRANKFORT AVE, LOUISVILLE, KY 40206",71,liquor store
ChIJbzMNxsB0aYgRUHeVOPa_vpY,Chenoweth Animal Hospital,"3624 FRANKFORT AVE, LOUISVILLE, KY 40207, USA",38.253341,-85.6625577,"3420 FRANKFORT AVE, ST MATTHEWS, KY 40207",70,pharmacy
ChIJ0ZyedsR0aYgR_trIE1x7Gl0,St Matthews Mini Mart,"316 WALLACE AVE, ST MATTHEWS, KY 40207, USA",38.2520043,-85.6575852,"314 WALLACE AVE, ST MATTHEWS, KY 40207",70,"gas station, convenience store"
ChIJgYoaKhl1aYgRRd3hZ3SQqUk,Kroger,"291 N HUBBARDS LN #130, ST MATTHEWS, KY 40207, USA",38.25834,-85.6367981,"291 N HUBBARDS LN, 130GROCERY, ST MATTHEWS, KY 40207",71,"liquor store, pharmacy"
ChIJgYoaKhl1aYgRy1_OixpQhqo,Kroger Pharmacy,"291 N HUBBARDS LN #130, ST MATTHEWS, KY 40207, USA",38.2584189,-85.63676520000001,"291 N HUBBARDS LN, 130GROCERY, ST MATTHEWS, KY 40207",71,pharmacy
ChIJB_UhcN90aYgRSFFVXdsxNyo,Walmart Pharmacy,"143 THIERMAN LN, ST MATTHEWS, KY 40207, USA",38.2536769,-85.64421600000001,"1901 RUDY LN, LOUISVILLE, KY 40207",53,pharmacy
ChIJB_UhcN90aYgRLlxsztEST2M,Walmart Neighborhood Market,"143 THIERMAN LN, ST MATTHEWS, KY 40207, USA",38.2536774,-85.6442166,"1901 RUDY LN, LOUISVILLE, KY 40207",53,pharmacy
ChIJYccXbzt1aYgR1jqNRK10aiU,Trader Joe's Wine,"4600 SHELBYVILLE RD STE 112 STE 112, LOUISVILLE, KY 40207, USA",38.2500677,-85.6313239,"4500 SHELBYVILLE RD, ST MATTHEWS, KY 40207",67,liquor store
ChIJn_wjnDZ1aYgRHvZU6-4Qf2Y,Bourbon Creek Louisville,"7900 SHELBYVILLE RD STE B05, LOUISVILLE, KY 40222, USA",38.2470462,-85.60991659999999,"14010 SHELBYVILLE RD, 40245",71,liquor store
ChIJeTZQ7xp1aYgRolWeIwUo51M,Prestige health,"8027 VINE CREST AVE, LYNDON, KY 40222, USA",38.2612743,-85.6070822,"8062 NEW LAGRANGE RD, 40222",63,"pharmacy, vape, cbd"
ChIJTbhK-BagaYgRl7sS7CI3n3A,Liquor Barn,"1850 S HURSTBOURNE PKWY, LOUISVILLE, KY 40220, USA",38.220482,-85.5824701,"1925 S HURSTBOURNE PKY, FOREST HILLS, KY 40220",71,"tobacco, liquor store"
ChIJ6QuHthegaYgRnkMwmzjX3x0,Patel Brothers,"1850 S HURSTBOURNE PKWY SUITE 134 SUITE 134, LOUISVILLE, KY 40220, USA",38.22161,-85.58384,"2809 N HURSTBOURNE PKY, 101, LOUISVILLE, KY 40223",65,convenience store
ChIJexcSJW-haYgRU1JPVMsZFcI,OPMH Project,"9825 BLUEGRASS PKWY, LOUISVILLE, KY 40299, USA",38.2214681,-85.56950710000001,"9260 SMYRNA PKY, BLDG, 40229",59,vape
ChIJkzQsqGShaYgRauqDin5Twc4,Sam's Club Gas Station,"1401 ALLIANT AVE, JEFFERSONTOWN, KY 40299, USA",38.2228639,-85.53534540000001,"1401 LEXINGTON RD, LOUISVILLE, KY 40206",54,"gas station, convenience store"
ChIJB7Nx_umhaYgR6q_v7VGMcdw,Marathon,"11550 BLUEGRASS PKWY, LOUISVILLE, JEFFERSONTOWN, KY 40299, USA",38.2165889,-85.5405109,"11550 BLUEGRASS PKY, JEFFERSONTOWN, KY 40299",68,"gas station, convenience store"
ChIJ-SGgTbahaYgR49l1ODD6pSw,Key Stone Fuel Station,"10921 PLANTSIDE DR, LOUISVILLE, KY 40299, USA",38.2095485,-85.55351399999999,"4129 FLINTLOCK DR, LOUISVILLE, KY 40216",56,gas station
ChIJo7ms8-mhaYgRtKxWJFJmXNU,McDonald's,"11600 BLUEGRASS PKWY, JEFFERSONTOWN, KY 40299, USA",38.2165408,-85.53966609999999,"11550 BLUEGRASS PKY, JEFFERSONTOWN, KY 40299",68,convenience store
ChIJgaMhut-haYgRekk5cZwKo3Q,Heine Brothers Coffee - Blankenbaker,"805 BLANKENBAKER PKWY, LOUISVILLE, KY 40243, USA",38.2306387,-85.54102569999999,"1804 BLANKENBAKER PKY, JEFFERSONTOWN, KY 40299",59,convenience store
ChIJZftGmeWhaYgRiAH04lx6pHM,Sam's Club,"1401 ALLIANT AVE, JEFFERSONTOWN, KY 40299, USA",38.222686,-85.53330199999999,"1401 LEXINGTON RD, LOUISVILLE, KY 40206",54,liquor store
ChIJ7-v_VNuhaYgRyq0aQCfXqc4,Option Care Health,"11403 BLUEGRASS PKWY #400, LOUISVILLE, KY 40299, USA",38.2219176,-85.5458179,"11550 BLUEGRASS PKY, JEFFERSONTOWN, KY 40299",64,pharmacy
ChIJIZPWkbyhaYgRYLt_X2HgBck,Chewy Pharmacy,"11403 BLUEGRASS PKWY, JEFFERSONTOWN, KY 40299, USA",38.22200610000001,-85.5457021,"11550 BLUEGRASS PKY, JEFFERSONTOWN, KY 40299",68,pharmacy
ChIJKfbANjKhaYgRQfMWf7PEg9g,Synchrony Rx@Home,"2703 CHESTNUT STATION COURT, LOUISVILLE, KY 40299, USA",38.2076677,-85.53216479999999,"2600 W CHESTNUT ST, LOUISVILLE, KY 40211",59,pharmacy
ChIJ5XdqRhGfaYgRSs5DY9YSYE8,502 Hemp Wellness Center,"201 MOSER RD SUITE B, LOUISVILLE, KY 40223, USA",38.2443436,-85.5591395,"209 E MAIN ST, SUITE 200, 40202",62,cbd
ChIJY7JNzeGhaYgRo1i94xO3ToY,CRUSHglobal,"2195 WATTERSON TRAIL, JEFFERSONTOWN, KY 40299, USA",38.212908,-85.5579425,"10525 WATTERSON TRL, JEFFERSONTOWN, KY 40299",65,cbd
ChIJZQ2HZQmYaYgRhLPORzOktso,United States Postal Service,"16207 EASTWOOD CUT OFF RD, EASTWOOD, KY 40018, USA",38.2322041,-85.4523904,"4109 BARDSTOWN RD, 103, LOUISVILLE, KY 40218",50,convenience store
ChIJS_wPo9gSaYgRLEjI2Mv0GDI,Park Duvalle Community Health Center Inc,"3015 WILSON AVE, LOUISVILLE, KY 40211, USA",38.227494,-85.80742029999999,"2930 WILSON AVE, LOUISVILLE, KY 40211",68,pharmacy
ChIJLRGyPrISaYgRJ3jwpQ_r_HA,Oakwood Liquor,"1502 W OAK ST, LOUISVILLE, KY 40210, USA",38.2365866,-85.7790175,"1500 W OAK ST, LOUISVILLE, KY 40210",69,liquor store
ChIJRSyKV2kNaYgR3umXQr16CUA,Stop N Go Smokes & Liquor,"427 WARNOCK ST, LOUISVILLE, KY 40217, USA",38.2145808,-85.75122859999999,"796 EASTERN PKY, LOUISVILLE, KY 40217",51,"tobacco, convenience store, liquor store, vape"
ChIJE_lv0PUNaYgRmYnEm8Ukb3E,Blaze Smoke Shop,"2221 CRITTENDEN DR, LOUISVILLE, KY 40217, USA",38.2145996,-85.7507722,"2704 CRITTENDEN DR, LOUISVILLE, KY 40209",61,"tobacco, vape"
ChIJ2aNneFINaYgRQUYZmjxtbtU,Abraha Food & Tobacco Mart,"1101 S 2ND ST, LOUISVILLE, KY 40203, USA",38.2368803,-85.7563054,"1397 S 2ND ST, LOUISVILLE, KY 40208",58,tobacco
ChIJS6eKlW4LaYgRfpwYkR6Wkhk,Elevated 502,"1157 S 2ND ST, LOUISVILLE, KY 40203, USA",38.2349291,-85.756821,"1397 S 2ND ST, LOUISVILLE, KY 40208",62,"tobacco, vape"
ChIJPUrHCwwNaYgR5HDixTw3PuA,Organic Cures,"329 W OAK ST, LOUISVILLE, KY 40208, USA",38.235099,-85.7599504,"325 W MAIN ST, LOUISVILLE, KY 40202",59,cbd
ChIJh5GcSWwNaYgRBD-ly_vQ8y4,Medical Arts Pharmacy,"1169 EASTERN PKWY STE 1110, LOUISVILLE, KY 40217, USA",38.2258653,-85.72551659999999,"796 EASTERN PKY, LOUISVILLE, KY 40217",57,pharmacy
ChIJXUMnjHLpaIgR9l69cpEYc5g,Cap'n Dave's Wellness,"1105 MILTON ST, LOUISVILLE, KY 40217, USA",38.2235341,-85.73779019999999,"1805 W OAK ST, LOUISVILLE, KY 40210",57,cbd
ChIJCx7PgKMNaYgRl5-DW-BhQFo,Flourish Health and Wellness,"1001 LOGAN ST, LOUISVILLE, KY 40204, USA",38.2356417,-85.73943489999999,"1004 E OAK ST, LOUISVILLE, KY 40204",62,cbd
ChIJnQvdBmYNaYgRtWadlMEh8mE,Full Stop Station,"1132 E ST CATHERINE ST, LOUISVILLE, KY 40204, USA",38.2342524,-85.73227709999999,"309 E ST CATHERINE ST, LOUISVILLE, KY 40203",70,cbd
ChIJU7e-HiNzaYgRbpguNG5hSxE,Vines Wine Bar & Spirit Shop,"1985 DOUGLASS BLVD, LOUISVILLE, KY 40205, USA",38.2244806,-85.69448059999999,"1871 BERRY BLVD, LOUISVILLE, KY 40215",54,liquor store
ChIJgSEb8BcLaYgRZaENL_-RLoU,Dollar General,"2817 DEL RIO PL, LOUISVILLE, KY 40220, USA",38.2147094,-85.65484599999999,"2817 DEL RIO PL, 101, LOUISVILLE, KY 40220",70,convenience store
ChIJ0158dyt1aYgRTNk-vJ7EPxM,Baptist Health Louisville Pharmacy,"4000 KRESGE WAY, ST MATTHEWS, KY 40207, USA",38.2372426,-85.6387925,"10986 DIXIE HWY, 40272",52,pharmacy
ChIJQQb7gtIKaYgR7qdLiAM7i9I,Louisville Compounding Pharmacy,"3930 DUPONT CIR APT 1, LOUISVILLE, KY 40207, USA",38.2313416,-85.6322744,"1029 BARDSTOWN RD, UNIT A, 40204",56,"pharmacy, cbd"
ChIJm7gqwIcNaYgRiPsf3XKs9No,Thorntons,"4500 S 3RD ST, LOUISVILLE, KY 40214, USA",38.1888989,-85.7656322,"4450 S 3RD ST, LOUISVILLE, KY 40214",69,"gas station, convenience store"
ChIJi2yW630NaYgRq_DKETdiook,Wagner's Pharmacy,"3113 S 4TH ST, LOUISVILLE, KY 40214, USA",38.2045247,-85.7655079,"3632 S 7TH STREET RD, BLDG, 40216",60,pharmacy
ChIJS1A8Lz8NaYgRoDU8xFnz_hU,Dollar Tree,"2929 PRESTON HWY, LOUISVILLE, KY 40217, USA",38.2072679,-85.73728679999999,"2911 PRESTON HWY, LOUISVILLE, KY 40217",69,convenience store
ChIJ85qhbRENaYgRz_jvhBRD72k,Liquor Island,"2703 PRESTON HWY, LOUISVILLE, KY 40217, USA",38.2112621,-85.7399212,"2703 PRESTON HWY, PARKWAY VILLAGE, KY 40217",70,"convenience store, liquor store"
ChIJv2NBk4sMaYgRkm7CrI-jz6M,New Vitalis Pharmacy,"4139 CADILLAC CT STE 201, LOUISVILLE, KY 40213, USA",38.2002811,-85.701351,"2701 S 4TH ST, LOUISVILLE, KY 40208",54,pharmacy
ChIJM9Zt0ZYLaYgR_-3IVfSBjSE,Hemp Vaping Adventure & smoke shop,"2140 OLD SHEPHERDSVILLE RD, LOUISVILLE, KY 40218, USA",38.1978111,-85.6611276,"7002 SHEPHERDSVILLE RD, LOUISVILLE, KY 40219",70,"tobacco, vape"
ChIJQYRe2QoLaYgRLN-8R-7xNPc,Kroger Fuel Center,"2000 HIKES LN, LOUISVILLE, KY 40218, USA",38.196906,-85.6626618,"2000 HIKES LN, WEST BUECHEL, KY 40218",70,gas station
ChIJWSNLDQsLaYgRVxjiEFnT1jQ,Walgreens Pharmacy,"2021 HIKES LN, LOUISVILLE, KY 40218, USA",38.1984158,-85.6620217,"2021 HIKES LN, WEST BUECHEL, KY 40218",70,pharmacy
ChIJE4fL63YLaYgROFMV-4T6Uds,CVS Pharmacy,"3600 MALL RD, LOUISVILLE, KY 40218, USA",38.1982926,-85.67125899999999,"3303 NEWBURG RD, 40218",62,pharmacy
ChIJDzZX5YALaYgRSJzaJTGVwgo,Omnicare Inc.,"4400 OLE BRICKYARD CIR, LOUISVILLE, KY 40218, USA",38.1919287,-85.68263739999999,"4700 BARDSTOWN RD, LOUISVILLE, KY 40218",58,pharmacy
ChIJwTQkDQsLaYgRWYqZK8DtsdI,Walgreens,"2021 HIKES LN, LOUISVILLE, KY 40218, USA",38.1984364,-85.6620444,"2021 HIKES LN, WEST BUECHEL, KY 40218",70,pharmacy
ChIJE4fL63YLaYgRIsVbYY4gXCs,Target,"3600 MALL RD, LOUISVILLE, KY 40218, USA",38.1982926,-85.67125899999999,"3303 NEWBURG RD, 40218",62,pharmacy
ChIJqwyh_gsLaYgR36-tUsVh6tA,AutoZone Auto Parts,"2231 HIKES LN, LOUISVILLE, KY 40218, USA",38.2007779,-85.6596268,"2204 HEATHER LN, 40218",70,gas station
ChIJaUMIleEKaYgRCPdvzrtTnAc,Wash N Shine,"2911 HIKES LN, LOUISVILLE, KY 40218, USA",38.2107685,-85.64206519999999,"2249 HIKES LN, LOUISVILLE, KY 40218",65,gas station
ChIJyYmMU-gLaYgRWD-OB5gUwmw,Chocolate And Nut Kingdom,"3731 BARDSTOWN RD, LOUISVILLE, KY 40218, USA",38.1974767,-85.65650529999999,"3300 BARDSTOWN RD, LOUISVILLE, KY 40218",70,gas station
ChIJia7kXgoLaYgRObP8N3ltNQk,Rescue Rangers Towing & Roadside Services,"2026 OLD SHEPHERDSVILLE RD, LOUISVILLE, KY 40218, USA",38.1934213,-85.6602803,"7002 SHEPHERDSVILLE RD, LOUISVILLE, KY 40219",70,gas station
ChIJgSEb8BcLaYgRZaENL_-RLoU,Dollar General,"2817 DEL RIO PL, LOUISVILLE, KY 40220, USA",38.2147094,-85.65484599999999,"2817 DEL RIO PL, 101, LOUISVILLE, KY 40220",70,convenience store
ChIJL3e1-AsLaYgRqUX-m5aY4p0,Dollar Tree,"2221 HIKES LN, LOUISVILLE, KY 40218, USA",38.2005114,-85.65994420000001,"2204 HEATHER LN, 40218",70,convenience store
ChIJnzBdhf4LaYgR3IxHhiGxPTM,Little Caesars Pizza,"3000 HIKES LN, LOUISVILLE, KY 40220, USA",38.211092,-85.640249,"3346 HIKES LN, LOUISVILLE, KY 40220",62,convenience store
ChIJS9ov9kKgaYgRRtC-lsC7nfU,Cox's Spirit Shoppe and Smoker's Outlet J-Town,"2803 PATTI LN, LOUISVILLE, KY 40299, USA",38.204497,-85.5801175,"2803 PATTI LN, JEFFERSONTOWN, KY 40299",69,"tobacco, liquor store, vape"
ChIJk0InnPigaYgRCLOvHyARWqs,Cox's Spirit Shoppe,"3920 RUCKRIEGEL PKWY, LOUISVILLE, KY 40299, USA",38.1906221,-85.5680945,"3920 RUCKRIEGEL PKY, 106, JEFFERSONTOWN, KY 40299",69,"tobacco, convenience store, liquor store"
ChIJy4XL-mSgaYgRirAmA1sJwjk,Circle K,"9003 GALENE DR, LOUISVILLE, KY 40299, USA",38.1986802,-85.59161209999999,"9003 GALENE DR, JEFFERSONTOWN, KY 40299",70,"gas station, convenience store"
ChIJU319iWmgaYgRNS37IYOHiFw,Aaa Food Mart,"GLEESON LN, JEFFERSONTOWN, KY 40299, USA",38.206922,-85.5833585,"2803 PATTI LN, JEFFERSONTOWN, KY 40299",54,convenience store
ChIJV1SHNnugaYgRuY3xl1dw-0w,Dollar General,"9101 GALENE DR, JEFFERSONTOWN, KY 40299, USA",38.199312,-85.59006959999999,"9101 GALENE DR, JEFFERSONTOWN, KY 40299",70,convenience store
ChIJnVl0Df-gaYgRRHQ-ziEdmvo,Walmart Neighborhood Market,"3800 RUCKRIEGEL PKWY, JEFFERSONTOWN, KY 40299, USA",38.1896931,-85.5642456,"3751 RUCKRIEGEL PARKWAY PARK, UNIT A, 40299",69,convenience store
ChIJnVl0Df-gaYgRF9utB0mTrug,Walmart Pharmacy,"3800 RUCKRIEGEL PKWY, JEFFERSONTOWN, KY 40299, USA",38.1896931,-85.5642456,"3751 RUCKRIEGEL PARKWAY PARK, UNIT A, 40299",69,pharmacy
ChIJU3X7_pChaYgRYE9cO90HDOA,Southern Glazers Wine & Spirits,"2801 CONSTANT COMMENT PL, LOUISVILLE, KY 40299, USA",38.2040809,-85.534274,"2803 PATTI LN, JEFFERSONTOWN, KY 40299",55,liquor store
ChIJ0RHpT5GhaYgRS6nxcahnCqY,Synchrony Pharmacy - Louisville,"2701 CHESTNUT STATION COURT, LOUISVILLE, KY 40299, USA",38.207402,-85.53220019999999,"2600 W CHESTNUT ST, LOUISVILLE, KY 40211",59,pharmacy
ChIJKfbANjKhaYgRQfMWf7PEg9g,Synchrony Rx@Home,"2703 CHESTNUT STATION COURT, LOUISVILLE, KY 40299, USA",38.2076677,-85.53216479999999,"2600 W CHESTNUT ST, LOUISVILLE, KY 40211",59,pharmacy
ChIJhRenfR2haYgRxWYD_4jGdsU,Chewy Pharmacy,"2815 WATTERSON TRAIL, LOUISVILLE, KY 40299, USA",38.2033035,-85.5591367,"10525 WATTERSON TRL, JEFFERSONTOWN, KY 40299",65,pharmacy
ChIJHzSmYUcMaYgRRh6pnmivxnU,Oriental Supermarket,"1211 GILMORE LN, LOUISVILLE, KY 40213, USA",38.1757318,-85.71180160000002,"1207 GILMORE LN, LYNNVIEW, KY 40213",70,convenience store
ChIJU1RaccMLaYgRUMnJ4TDh42M,KabaFusion,"5694 SHEPHERDSVILLE RD, LOUISVILLE, KY 40218, USA",38.1650018,-85.6620348,"6714 SHEPHERDSVILLE RD, LOUISVILLE, KY 40228",71,pharmacy
ChIJGd2GQjMKaYgRWZmLvyYoaH0,Owens & Minor Distribution Inc,"6201 GLOBAL DISTRIBUTION WY # 101, LOUISVILLE, KY 40228, USA",38.1666181,-85.6421962,"3201 KRISTIN WAY, LOUISVILLE, KY 40216",55,pharmacy
ChIJR2ML56EWaYgRGTMua_gb3KA,G.M Food Mart,"6602 TERRY RD, LOUISVILLE, KY 40258, USA",38.155726,-85.8686464,"4950 TERRY RD, UNIT A, 40216",62,convenience store
ChIJk26VY1kRaYgRj5MLMk9tUvI,Saffire Vapor,"6661 DIXIE HWY #2, LOUISVILLE, KY 40258, USA",38.153486,-85.8350475,"6661 DIXIE HWY, LOUISVILLE, KY 40258",71,"tobacco, vape, cbd"
ChIJMzu8njoXaYgRwm0TxiBR65U,Scooter's Coffee,"9060 DIXIE HWY, LOUISVILLE, KY 40258, USA",38.1240881,-85.8537592,"9050 DIXIE HWY, LOUISVILLE, KY 40258",70,convenience store
ChIJS9WRU5QTaYgRoAtuWc3wV5U,Kentucky Pharmacy,"2233 LOWER HUNTERS TRACE, LOUISVILLE, KY 40216, USA",38.1597839,-85.85008309999999,"1939 LOWER HUNTERS TRCE, LOUISVILLE, KY 40216",71,pharmacy
ChIJvYXvagARaYgRjP0QJe6MGO8,Walgreens,"GREENWOOD RD, LOUISVILLE, KY 40258, USA",38.1443171,-85.8405774,"5207 GREENWOOD RD, LOUISVILLE, KY 40258",65,pharmacy
ChIJ5zBg2rkRaYgRhwyh7sCiyK4,Magic Vapes Hemp,"132 OUTER LOOP #100, LOUISVILLE, KY 40214, USA",38.1265855,-85.7903522,"132 OUTER LOOP, LOUISVILLE, KY 40214",69,"tobacco, vape"
ChIJc42bUMQRaYgRLOeV7Mqi64E,Walmart Pharmacy,"175 OUTER LOOP, LOUISVILLE, KY 40214, USA",38.129082,-85.77994009999999,"185 OUTER LOOP, LOUISVILLE, KY 40214",70,pharmacy
ChIJX7jxLhcOaYgRZm-mBM-om6s,EL REY MARKET,"7600 NATIONAL TURNPIKE, LOUISVILLE, KY 40214, USA",38.1392744,-85.7543178,"5600 NATIONAL TPKE, LOUISVILLE, KY 40214",70,convenience store
ChIJwZHVlQEOaYgRcGmrF4KrBCQ,Dairy Queen Grill & Chill,"5516 NATIONAL TURNPIKE, LOUISVILLE, KY 40214, USA",38.1516876,-85.7650065,"5600 NATIONAL TPKE, LOUISVILLE, KY 40214",67,convenience store
ChIJP6KMTjgOaYgRy3rxCnjC0jw,Extra Space Storage,"8601 NATIONAL TURNPIKE, FAIRDALE, KY 40118, USA",38.1256849,-85.74804139999999,"8701 NATIONAL TPKE, LOUISVILLE, KY 40118",70,convenience store
ChIJowzTBXMPaYgRmEjFcmlKdeA,JEKE Liquors,"8206 NATIONAL TURNPIKE A, LOUISVILLE, KY 40214, USA",38.1305099,-85.7508376,"8405 NATIONAL TPKE, LOUISVILLE, KY 40214",68,liquor store
ChIJ7z52B0UOaYgRHs8JeVFpqbE,Medvantx Specialty Pharmacy,"1860 OUTER LOOP, HERITAGE CREEK, KY 40219, USA",38.1269488,-85.73598369999999,"185 OUTER LOOP, LOUISVILLE, KY 40214",65,pharmacy
ChIJb1lBwmEPaYgRqjr20EXcMio,Popular Smoke and Vape,"7702 PRESTON HWY STE C, LOUISVILLE, KY 40219, USA",38.1401451,-85.68822809999999,"7702 PRESTON HWY, LOUISVILLE, KY 40219",69,"tobacco, vape"
ChIJP4-LzkcPaYgR2I32jgZGAmo,RaceTrac,"800 AIR COMMERCE DR, LOUISVILLE, KY 40219, USA",38.133606,-85.71972900000002,"8000 BLUE LICK RD, LOUISVILLE, KY 40219",52,"tobacco, gas station, convenience store"
ChIJoUwjRcYPaYgRAAp705Ss8iw,Heine Brothers Coffee - Outer Loop,"3541 OUTER LOOP, LOUISVILLE, KY 40219, USA",38.136969,-85.69538419999999,"185 OUTER LOOP, LOUISVILLE, KY 40214",62,convenience store
ChIJq6LfopMOaYgRYblNbDs8uL8,McDonald's,"2800 OUTER LOOP, LOUISVILLE, KY 40219, USA",38.1362929,-85.7120249,"185 OUTER LOOP, LOUISVILLE, KY 40214",62,convenience store
ChIJAab6ou0JaYgRKZM0qWeeWbw,CVS,"4101 OUTER LOOP, LOUISVILLE, KY 40219, USA",38.1388356,-85.6862226,"4310 OUTER LOOP, LOUISVILLE, KY 40219",71,"convenience store, pharmacy"
ChIJsfAhMUQJaYgRAYh5K-UVLTY,Walmart Pharmacy,"4840 OUTER LOOP, LOUISVILLE, KY 40219, USA",38.1357145,-85.67187369999999,"4900 OUTER LOOP, LOUISVILLE, KY 40219",68,pharmacy
ChIJ6ewkX-ILaYgRjnKQ8sJSjxk,RxCrossroads by McKesson,"5101 JEFF COMMERCE DR, LOUISVILLE, KY 40219, USA",38.1538551,-85.6707335,"3501 3501 COLLEGE DR DR, 40299",54,pharmacy
ChIJU1RaccMLaYgRUMnJ4TDh42M,KabaFusion,"5694 SHEPHERDSVILLE RD, LOUISVILLE, KY 40218, USA",38.1650018,-85.6620348,"6714 SHEPHERDSVILLE RD, LOUISVILLE, KY 40228",71,pharmacy
ChIJdV3sqkynaYgR8nqApz4rTVI,Liquor Palace,"6752 BARDSTOWN RD #3048, LOUISVILLE, KY 40291, USA",38.148209,-85.5878594,"6752 BARDSTOWN RD, LOUISVILLE, KY 40291",71,liquor store
ChIJk43fVuunaYgRovCR8CNXm1U,Kentucky Gold CBD,"5906 CHENOWETH RUN RD, LOUISVILLE, KY 40299, USA",38.1594006,-85.5399975,"4350 CANE RUN RD,",65,cbd
ChIJh-ig4IWkaYgR_lA_qRSfOho,C & J Deer Processing & Taxidermy Service,"6820 OLD HEADY RD, LOUISVILLE, KY 40299, USA",38.1359674,-85.4741323,"6620 BARDSTOWN RD, LOUISVILLE, KY 40291",60,convenience store
ChIJ5947QD0XaYgR1IU40cN8y28,Dollar Tree,"SHOPPING CENTER, 10309 DIXIE HWY, LOUISVILLE, KY 40272, USA",38.1047703,-85.8671918,"10986 DIXIE HWY, 40272",66,convenience store
ChIJ53PPZ9APaYgRaZXqrEJcc7M,Circle K,"404 MT HOLLY RD, FAIRDALE, KY 40118, USA",38.104278,-85.75838399999999,"404 MOUNT HOLLY RD, LOUISVILLE, KY 40118",71,"gas station, convenience store"
ChIJ0T_mZ9APaYgRmwCzcGugJZA,Marathon,"404 MT HOLLY RD, FAIRDALE, KY 40118, USA",38.104337,-85.758369,"404 MOUNT HOLLY RD, LOUISVILLE, KY 40118",71,"gas station, convenience store"
ChIJ60F9ttYPaYgRr6OFFNeR8aQ,Dollar General,"10608 W MANSLICK RD, LOUISVILLE, KY 40272, USA",38.1073132,-85.76187829999999,"10608 W MANSLICK RD, LOUISVILLE, KY 40118",69,convenience store
ChIJ2xHUgscPaYgRD1wiSWj1T3c,Family Dollar,"503 MT HOLLY RD, FAIRDALE, KY 40118, USA",38.1039405,-85.7562835,"503 MOUNT HOLLY RD, LOUISVILLE, KY 40118",71,convenience store
ChIJhfwpIpUPaYgRXoZhv8XfEck,Bannon Woods Veterinary Hospital,"11116 DEZERN AVE, FAIRDALE, KY 40118, USA",38.0899272,-85.7463205,"1101 FAIRDALE RD, UNIT A, 40118",63,pharmacy
ChIJOVGDYSUPaYgRa5_XIED4xjw,Silver Heights Exotic Smoke House,"9316 BLUE LICK RD, OKOLONA, KY 40229, USA",38.1135511,-85.6907798,"9316 BLUE LICK RD, SUITE, LOUISVILLE, KY 40229",70,"tobacco, vape"
ChIJJVC3dSUJaYgRK66t1fdMD98,Smoke Town,"5016 MUD LN, LOUISVILLE, KY 40229, USA",38.0914856,-85.669679,"5001 MUD LN, LOUISVILLE, KY 40229",67,"tobacco, vape, cbd"
ChIJHXElN8kIaYgR73QYVYFGGvY,National Tobacco Company,"5201 INTERCHANGE WAY, LOUISVILLE, KY 40229, USA",38.0943556,-85.6779171,"8062 NEW LAGRANGE RD, 40222",54,tobacco
ChIJHXElN8kIaYgRVkJU4Iqn15k,Stoker's,"5201 INTERCHANGE WAY, LOUISVILLE, KY 40229, USA",38.0943556,-85.6779171,"8062 NEW LAGRANGE RD, 40222",54,tobacco
ChIJH0LxI78IaYgRed2k8AGwDXI,Kroger Fuel Center,"5001 MUD LN, LOUISVILLE, KY 40229, USA",38.0884877,-85.67055049999999,"5001 MUD LN, LOUISVILLE, KY 40229",71,"gas station, convenience store"
ChIJIRZIOrwIaYgRU7OQhD9CahU,DG Market + pOpshelf,"11400 PRESTON HWY, LOUISVILLE, KY 40229, USA",38.0834241,-85.67020989999999,"10515 PRESTON HWY, LOUISVILLE, KY 40229",67,convenience store
ChIJEeeVR78IaYgRYOf7dupLzu0,CVS,"5121 ANTLE DR, LOUISVILLE, KY 40229, USA",38.0880437,-85.6685928,"5400 ANTLE DR, LOUISVILLE, KY 40229",62,"convenience store, pharmacy"
ChIJqYop1sYIaYgRpOkm0hX9OeI,Valvoline Instant Oil Change,"11810 ANTONIA WAY, LOUISVILLE, KY 40229, USA",38.0919076,-85.66957049999999,"10986 DIXIE HWY, 40272",55,convenience store
ChIJrSewL8cIaYgR3ii_q23D7G0,Liquor Town,"5016 MUD LN, LOUISVILLE, KY 40229, USA",38.0914652,-85.6698572,"5001 MUD LN, LOUISVILLE, KY 40229",67,liquor store
ChIJX2n4oLgIaYgRzzCfoZNVlVg,Kroger Pharmacy,"5001 MUD LN, LOUISVILLE, KY 40229, USA",38.0892425,-85.6707054,"5001 MUD LN, LOUISVILLE, KY 40229",71,pharmacy
ChIJJ3i8HwAJaYgRt_est2lp5JM,CIRCLE K,"6305 E MANSLICK RD, LOUISVILLE, KY 40219, USA",38.123333,-85.6438641,"6305 E MANSLICK RD, LOUISVILLE, KY 40228",71,"gas station, convenience store"
ChIJq6pOAwmgaYgRa-kRBFLmUTY,Home and Garden Barrels,"8200 STOUT RD, LOUISVILLE, KY 40291, USA",38.124923,-85.537933,"9240 WESPORT RD, 40242",65,liquor store
ChIJgc9agvSlaYgR0myKjbVWc4I,Marathon Gas,"2967 KINGS CHURCH RD, TAYLORSVILLE, KY 40071, USA",38.0939861,-85.4752881,"7813 BEULAH CHURCH RD, 107, LOUISVILLE, KY 40228",56,"gas station, convenience store"
ChIJB74222UFaYgRM1bH2FO0ub4,Brooks Hill Winery,"2746 BROOKS HILL RD, BROOKS, KY 40109, USA",38.0626932,-85.7404498,"2007 BROWNSBORO RD, LOUISVILLE, KY 40206",60,liquor store
ChIJ77WUW00JaYgR8RkK75AA8Sg,Smokers World,"1679 OLD PRESTON HWY N #26, LOUISVILLE, KY 40229, USA",38.080103,-85.6684504,"10515 PRESTON HWY, LOUISVILLE, KY 40229",68,"tobacco, vape"
ChIJBdLOzqYIaYgRGL6KtoFy8EE,Discount Smokes,"6434 N PRESTON HWY UNIT 3, LOUISVILLE, KY 40229, USA",38.0721042,-85.6693775,"5043 PRESTON HWY, LYNNVIEW, KY 40213",62,"tobacco, vape, cbd"
ChIJs4VdM0MJaYgRxUMbTdSLTds,VIP Smoke Shop - Hillview,"254 MKT PL DR, LOUISVILLE, KY 40229, USA",38.0731924,-85.6707418,"214 DORSEY LN, LOUISVILLE, KY 40223",54,"tobacco, vape"
ChIJN3Q7l7wIaYgRes-w_rYsD8k,Hillview wine and spirits,"1679 OLD PRESTON HWY N SUITE# 38, LOUISVILLE, KY 40229, USA",38.0796481,-85.6685299,"10515 PRESTON HWY, LOUISVILLE, KY 40229",62,"tobacco, liquor store"
ChIJg2pKslgHaYgREhaz7Vs_TnE,Rapid fuel and snacks,"3390 BURKLAND BLVD, SHEPHERDSVILLE, KY 40165, USA",38.0521463,-85.6765783,"3439 TAYLOR BLVD, BLDG, 40215",63,"tobacco, gas station, convenience store"
ChIJqSpcurwIaYgR2KDedzC_fzc,Marathon Gas,"155 HILLVIEW BLVD, LOUISVILLE, KY 40229, USA",38.0788531,-85.66858309999999,"10986 DIXIE HWY, 40272",55,"gas station, convenience store"
ChIJJyeTXqAIaYgRnKS9GH_1WZ4,Dollar General,"4925 OLD PRESTON HWY N, SHEPHERDSVILLE, KY 40165, USA",38.052379,-85.67756349999999,"4017 PRESTON HWY, LOUISVILLE, KY 40213",69,convenience store
ChIJ18jZaKYIaYgRZwWu04o13ZU,Price Less IGA,"175 MKT PL DR, LOUISVILLE, KY 40229, USA",38.0727477,-85.6725429,"13725 DIXIE HWY, LOUISVILLE, KY 40272",52,convenience store
ChIJhcV6VkUZTIYR2cIrFrTAYrs,Scooter's Coffee,"110 MKT PL DR, LOUISVILLE, KY 40229, USA",38.071738,-85.6712233,"5406 ANTLE DR, 111, LOUISVILLE, KY 40229",54,convenience store
ChIJH1KjjAmpaYgRLQt7Isd1ueA,Smokers Outlet,"240 EASTBROOKE PKWY #105, MT WASHINGTON, KY 40047, USA",38.0558987,-85.5367167,"1054 BARRET AVE, LOUISVILLE, KY 40204",53,"tobacco, vape, cbd"
ChIJDafj7qapaYgRYZ9fAe63pjc,House of Glass Smoke Shop,"10731 HWY 44 E #D, MT WASHINGTON, KY 40047, USA",38.0490332,-85.5400204,"4048 E DIXIE HWY, BLDG, 40216",61,"tobacco, vape"
ChIJm3cW1oKoaYgRldYwzoon_EU,Cox's Spirit Shoppe,"316 N BARDSTOWN RD, MT WASHINGTON, KY 40047, USA",38.050572,-85.54613200000001,"1029 BARDSTOWN RD, UNIT A, 40204",70,"tobacco, convenience store, liquor store, vape, cbd"
ChIJjymDD6OoaYgR9KAs3ELXKHg,Kroger Fuel Center,"117 HIGH POINT CT, MT WASHINGTON, KY 40047, USA",38.0558573,-85.53903679999999,"10511 FISCHER PARK DR, 40241",48,"gas station, convenience store"
ChIJ85_OQZOoaYgR-jAk6BXoWq8,VALERO,"100 LOUISE WAY, MT WASHINGTON, KY 40047, USA",38.0435926,-85.547646,"1004 E OAK ST, LOUISVILLE, KY 40204",64,"gas station, convenience store"
ChIJY5uOmFivaYgRoVn1UlwwFMY,bp,"11135 OLD MILL RD, MT WASHINGTON, KY 40047, USA",38.0523315,-85.5352877,"1901 RUDY LN, LOUISVILLE, KY 40207",55,"gas station, convenience store"
ChIJyxwxVLuoaYgRaJnCLWBmcG0,FiveStar,"11135 KY-44, MT WASHINGTON, KY 40047, USA",38.052432,-85.53488970000001,"1035 ZORN AVE, LOUISVILLE, KY 40207",48,"gas station, convenience store"
ChIJrVd4bL6oaYgRJEJhK7Cd-kk,Dollar General,"941 N BARDSTOWN RD, MT WASHINGTON, KY 40047, USA",38.0577518,-85.55029789999999,"1029 BARDSTOWN RD, UNIT A, 40204",67,convenience store
ChIJpeRTK5GoaYgRWPZCo0yko6M,Kroger,"234 EASTBROOKE PKWY, MT WASHINGTON, KY 40047, USA",38.0566088,-85.53693559999999,"796 EASTERN PKY, LOUISVILLE, KY 40217",50,"convenience store, liquor store, pharmacy"
ChIJmzuSGL2oaYgRWbFZ885_XiQ,Walgreens,"11099 HWY 44 E, MT WASHINGTON, KY 40047, USA",38.0519527,-85.53570069999999,"10986 DIXIE HWY, 40272",63,"convenience store, pharmacy"
ChIJc2iAqLyoaYgRXHU4oKv8AvU,Walgreens Pharmacy,"11099 HWY 44 E, MT WASHINGTON, KY 40047, USA",38.0519204,-85.5356736,"10986 DIXIE HWY, 40272",63,pharmacy
ChIJx_xJGuGpaYgRil7gBjFMCWw,B&B Pharmacy,"126 SHADOWMEADE LN UNIT 2, MT WASHINGTON, KY 40047, USA",38.0592112,-85.5423024,"1029 BARDSTOWN RD, UNIT A, 40204",62,pharmacy
ChIJpeRTK5GoaYgRKJgnQ70VIm8,Kroger Pharmacy,"234 EASTBROOKE PKWY, MT WASHINGTON, KY 40047, USA",38.056676,-85.5369642,"796 EASTERN PKY, LOUISVILLE, KY 40217",50,pharmacy
ChIJHbtRmhsiaYgRozY8zQWdsDU,Valero,"101 MAIN ST, WEST POINT, KY 40177, USA",37.9992989,-85.9443115,"1901 W MAIN ST, LOUISVILLE, KY 40203",55,"gas station, convenience store, pharmacy"
